[
    {
        "id": 1,
        "city": "Olèrdola",
        "postal_code": "08145",
        "province": "Barcelona",
        "province_code": "08",
        "region": "Cataluña",
        "region_code": "09",
        "latitude": 41.3181561,
        "longitude": 1.7246856,
        "altitude": 186.07640075684,
        "zonecode": "C2"
    },
    {
        "id": 2,
        "city": "Sant Andreu de Llavaneres",
        "postal_code": "08197",
        "province": "Barcelona",
        "province_code": "08",
        "region": "Cataluña",
        "region_code": "09",
        "latitude": 41.5754747,
        "longitude": 2.4831483,
        "altitude": 120.77070617676,
        "zonecode": "C2"
    },
    {
        "id": 3,
        "city": "Sant Cebrià de Vallalta",
        "postal_code": "08203",
        "province": "Barcelona",
        "province_code": "08",
        "region": "Cataluña",
        "region_code": "09",
        "latitude": 41.6198985,
        "longitude": 2.5997035,
        "altitude": 80.67008972168,
        "zonecode": "C2"
    },
    {
        "id": 4,
        "city": "Cascajares de Bureba",
        "postal_code": "09077",
        "province": "Burgos",
        "province_code": "09",
        "region": "Castilla y León",
        "region_code": "07",
        "latitude": 42.6793977,
        "longitude": -3.2379368,
        "altitude": 806.57012939453,
        "zonecode": "E1"
    },
    {
        "id": 5,
        "city": "Castrojeriz",
        "postal_code": "09091",
        "province": "Burgos",
        "province_code": "09",
        "region": "Castilla y León",
        "region_code": "07",
        "latitude": 42.2884823,
        "longitude": -4.1424199,
        "altitude": 798.12884521484,
        "zonecode": "E1"
    },
    {
        "id": 6,
        "city": "Celada del Camino",
        "postal_code": "09095",
        "province": "Burgos",
        "province_code": "09",
        "region": "Castilla y León",
        "region_code": "07",
        "latitude": 42.263218,
        "longitude": -3.9336581,
        "altitude": 797.46752929688,
        "zonecode": "E1"
    },
    {
        "id": 7,
        "city": "Cillaperlata",
        "postal_code": "09102",
        "province": "Burgos",
        "province_code": "09",
        "region": "Castilla y León",
        "region_code": "07",
        "latitude": 42.7824321,
        "longitude": -3.3571549,
        "altitude": 550.31237792969,
        "zonecode": "D1"
    },
    {
        "id": 8,
        "city": "Coruña del Conde",
        "postal_code": "09112",
        "province": "Burgos",
        "province_code": "09",
        "region": "Castilla y León",
        "region_code": "07",
        "latitude": 41.7660841,
        "longitude": -3.3911803,
        "altitude": 905.94158935547,
        "zonecode": "E1"
    },
    {
        "id": 9,
        "city": "Hontanas",
        "postal_code": "09159",
        "province": "Burgos",
        "province_code": "09",
        "region": "Castilla y León",
        "region_code": "07",
        "latitude": 42.3122534,
        "longitude": -4.044638,
        "altitude": 869.24951171875,
        "zonecode": "E1"
    },
    {
        "id": 10,
        "city": "Merindad de Sotoscueva",
        "postal_code": "09215",
        "province": "Burgos",
        "province_code": "09",
        "region": "Castilla y León",
        "region_code": "07",
        "latitude": 43.0587747,
        "longitude": -3.642048,
        "altitude": 760.72027587891,
        "zonecode": "E1"
    },
    {
        "id": 11,
        "city": "Montorio",
        "postal_code": "09227",
        "province": "Burgos",
        "province_code": "09",
        "region": "Castilla y León",
        "region_code": "07",
        "latitude": 42.5847317,
        "longitude": -3.77621,
        "altitude": 943.87524414062,
        "zonecode": "E1"
    },
    {
        "id": 12,
        "city": "Olmedillo de Roa",
        "postal_code": "09235",
        "province": "Burgos",
        "province_code": "09",
        "region": "Castilla y León",
        "region_code": "07",
        "latitude": 41.7841654,
        "longitude": -3.9355696,
        "altitude": 848.56964111328,
        "zonecode": "E1"
    },
    {
        "id": 13,
        "city": "Piérnigas",
        "postal_code": "09265",
        "province": "Burgos",
        "province_code": "09",
        "region": "Castilla y León",
        "region_code": "07",
        "latitude": 42.5905971,
        "longitude": -3.412931,
        "altitude": 736.40356445312,
        "zonecode": "E1"
    },
    {
        "id": 14,
        "city": "Pinilla Trasmonte",
        "postal_code": "09270",
        "province": "Burgos",
        "province_code": "09",
        "region": "Castilla y León",
        "region_code": "07",
        "latitude": 41.8736476,
        "longitude": -3.6187948,
        "altitude": 930.38189697266,
        "zonecode": "E1"
    },
    {
        "id": 15,
        "city": "Puentedura",
        "postal_code": "09277",
        "province": "Burgos",
        "province_code": "09",
        "region": "Castilla y León",
        "region_code": "07",
        "latitude": 42.0409034,
        "longitude": -3.5850658,
        "altitude": 861.42279052734,
        "zonecode": "E1"
    },
    {
        "id": 16,
        "city": "Riocavado de la Sierra",
        "postal_code": "09318",
        "province": "Burgos",
        "province_code": "09",
        "region": "Castilla y León",
        "region_code": "07",
        "latitude": 42.1529736,
        "longitude": -3.1974248,
        "altitude": 1145.4038085938,
        "zonecode": "E1"
    },
    {
        "id": 17,
        "city": "Santa Cruz de la Salceda",
        "postal_code": "09345",
        "province": "Burgos",
        "province_code": "09",
        "region": "Castilla y León",
        "region_code": "07",
        "latitude": 41.5953822,
        "longitude": -3.593609,
        "altitude": 892.72015380859,
        "zonecode": "E1"
    },
    {
        "id": 18,
        "city": "Santa Gadea del Cid",
        "postal_code": "09347",
        "province": "Burgos",
        "province_code": "09",
        "region": "Castilla y León",
        "region_code": "07",
        "latitude": 42.7151216,
        "longitude": -3.059498,
        "altitude": 504.80853271484,
        "zonecode": "D1"
    },
    {
        "id": 19,
        "city": "Villegas",
        "postal_code": "09473",
        "province": "Burgos",
        "province_code": "09",
        "region": "Castilla y León",
        "region_code": "07",
        "latitude": 42.4679067,
        "longitude": -4.0165516,
        "altitude": 824.11553955078,
        "zonecode": "E1"
    },
    {
        "id": 20,
        "city": "Calzadilla",
        "postal_code": "10040",
        "province": "Cáceres",
        "province_code": "10",
        "region": "Extremadura",
        "region_code": "11",
        "latitude": 40.0598476,
        "longitude": -6.5316438,
        "altitude": 354.68551635742,
        "zonecode": "C4"
    },
    {
        "id": 21,
        "city": "Casas de Don Gómez",
        "postal_code": "10053",
        "province": "Cáceres",
        "province_code": "10",
        "region": "Extremadura",
        "region_code": "11",
        "latitude": 40.0081405,
        "longitude": -6.6103778,
        "altitude": 314.59033203125,
        "zonecode": "C4"
    },
    {
        "id": 22,
        "city": "Holguera",
        "postal_code": "10099",
        "province": "Cáceres",
        "province_code": "10",
        "region": "Extremadura",
        "region_code": "11",
        "latitude": 39.8980406,
        "longitude": -6.3498624,
        "altitude": 283.7692565918,
        "zonecode": "C4"
    },
    {
        "id": 23,
        "city": "Perales del Puerto",
        "postal_code": "10142",
        "province": "Cáceres",
        "province_code": "10",
        "region": "Extremadura",
        "region_code": "11",
        "latitude": 40.1551994,
        "longitude": -6.6818561,
        "altitude": 430.61871337891,
        "zonecode": "C4"
    },
    {
        "id": 24,
        "city": "Piornal",
        "postal_code": "10147",
        "province": "Cáceres",
        "province_code": "10",
        "region": "Extremadura",
        "region_code": "11",
        "latitude": 40.1164877,
        "longitude": -5.8471434,
        "altitude": 1180.6322021484,
        "zonecode": "E1"
    },
    {
        "id": 25,
        "city": "Valdefuentes",
        "postal_code": "10198",
        "province": "Cáceres",
        "province_code": "10",
        "region": "Extremadura",
        "region_code": "11",
        "latitude": 39.2751401,
        "longitude": -6.1248675,
        "altitude": 471.86959838867,
        "zonecode": "C4"
    },
    {
        "id": 26,
        "city": "Alagón del Río",
        "postal_code": "10903",
        "province": "Cáceres",
        "province_code": "10",
        "region": "Extremadura",
        "region_code": "11",
        "latitude": 39.9733973,
        "longitude": -6.3174621,
        "altitude": 260.47103881836,
        "zonecode": "C4"
    },
    {
        "id": 27,
        "city": "Tiétar",
        "postal_code": "10904",
        "province": "Cáceres",
        "province_code": "10",
        "region": "Extremadura",
        "region_code": "11",
        "latitude": 40.0299551,
        "longitude": -5.4817134,
        "altitude": 276.74438476562,
        "zonecode": "C4"
    },
    {
        "id": 28,
        "city": "Vejer de la Frontera",
        "postal_code": "11039",
        "province": "Cádiz",
        "province_code": "11",
        "region": "Andalucía",
        "region_code": "01",
        "latitude": 36.252034,
        "longitude": -5.9667359,
        "altitude": 185.7025604248,
        "zonecode": "B3"
    },
    {
        "id": 29,
        "city": "Zahara",
        "postal_code": "11042",
        "province": "Cádiz",
        "province_code": "11",
        "region": "Andalucía",
        "region_code": "01",
        "latitude": 36.8394942,
        "longitude": -5.3919919,
        "altitude": 498.84115600586,
        "zonecode": "C3"
    },
    {
        "id": 30,
        "city": "Algimia de Almonacid",
        "postal_code": "12008",
        "province": "Castelló",
        "province_code": "12",
        "region": "Comunitat Valenciana",
        "region_code": "10",
        "latitude": 39.9144563,
        "longitude": -0.442378,
        "altitude": 488.67041015625,
        "zonecode": "C3"
    },
    {
        "id": 31,
        "city": "Artana",
        "postal_code": "12016",
        "province": "Castelló",
        "province_code": "12",
        "region": "Comunitat Valenciana",
        "region_code": "10",
        "latitude": 39.8904109,
        "longitude": -0.2567233,
        "altitude": 252.66398620605,
        "zonecode": "C3"
    },
    {
        "id": 32,
        "city": "Benlloc",
        "postal_code": "12029",
        "province": "Castelló",
        "province_code": "12",
        "region": "Comunitat Valenciana",
        "region_code": "10",
        "latitude": 40.2105043,
        "longitude": 0.0268202,
        "altitude": 313.22637939453,
        "zonecode": "C3"
    },
    {
        "id": 33,
        "city": "Càlig",
        "postal_code": "12034",
        "province": "Castelló",
        "province_code": "12",
        "region": "Comunitat Valenciana",
        "region_code": "10",
        "latitude": 40.4618491,
        "longitude": 0.3550837,
        "altitude": 124.65774536133,
        "zonecode": "C3"
    },
    {
        "id": 34,
        "city": "la Salzadella",
        "postal_code": "12098",
        "province": "Castelló",
        "province_code": "12",
        "region": "Comunitat Valenciana",
        "region_code": "10",
        "latitude": 40.4234889,
        "longitude": 0.170158,
        "altitude": 322.04403686523,
        "zonecode": "C3"
    },
    {
        "id": 35,
        "city": "Corral de Calatrava",
        "postal_code": "13035",
        "province": "Ciudad Real",
        "province_code": "13",
        "region": "Castilla-La Mancha",
        "region_code": "08",
        "latitude": 38.8536554,
        "longitude": -4.0899911,
        "altitude": 615.74200439453,
        "zonecode": "D3"
    },
    {
        "id": 36,
        "city": "Villamayor de Calatrava",
        "postal_code": "13091",
        "province": "Ciudad Real",
        "province_code": "13",
        "region": "Castilla-La Mancha",
        "region_code": "08",
        "latitude": 38.7880386,
        "longitude": -4.1373026,
        "altitude": 658.66717529297,
        "zonecode": "D3"
    },
    {
        "id": 37,
        "city": "Belmez",
        "postal_code": "14009",
        "province": "Córdoba",
        "province_code": "14",
        "region": "Andalucía",
        "region_code": "01",
        "latitude": 38.2710887,
        "longitude": -5.2070955,
        "altitude": 524.1630859375,
        "zonecode": "C4"
    },
    {
        "id": 38,
        "city": "Córdoba",
        "postal_code": "14021",
        "province": "Córdoba",
        "province_code": "14",
        "region": "Andalucía",
        "region_code": "01",
        "latitude": 37.8893025,
        "longitude": -4.7792753,
        "altitude": 123.23999786377,
        "zonecode": "B4"
    },
    {
        "id": 39,
        "city": "Moriles",
        "postal_code": "14045",
        "province": "Córdoba",
        "province_code": "14",
        "region": "Andalucía",
        "region_code": "01",
        "latitude": 37.4359137,
        "longitude": -4.6075948,
        "altitude": 380.47229003906,
        "zonecode": "C4"
    },
    {
        "id": 40,
        "city": "Noia",
        "postal_code": "15057",
        "province": "A Coruña",
        "province_code": "15",
        "region": "Galicia",
        "region_code": "12",
        "latitude": 42.7842757,
        "longitude": -8.8882891,
        "altitude": 9.6037664413452,
        "zonecode": "C1"
    },
    {
        "id": 41,
        "city": "Cariño",
        "postal_code": "15901",
        "province": "A Coruña",
        "province_code": "15",
        "region": "Galicia",
        "region_code": "12",
        "latitude": 43.740925,
        "longitude": -7.8699718,
        "altitude": 3.9453551769257,
        "zonecode": "C1"
    },
    {
        "id": 42,
        "city": "La Almarcha",
        "postal_code": "16015",
        "province": "Cuenca",
        "province_code": "16",
        "region": "Castilla-La Mancha",
        "region_code": "08",
        "latitude": 39.6855984,
        "longitude": -2.3776598,
        "altitude": 856.03656005859,
        "zonecode": "D2"
    },
    {
        "id": 43,
        "city": "Beamud",
        "postal_code": "16031",
        "province": "Cuenca",
        "province_code": "16",
        "region": "Castilla-La Mancha",
        "region_code": "08",
        "latitude": 40.1862037,
        "longitude": -1.8290905,
        "altitude": 1339.0563964844,
        "zonecode": "E1"
    },
    {
        "id": 44,
        "city": "Huete",
        "postal_code": "16112",
        "province": "Cuenca",
        "province_code": "16",
        "region": "Castilla-La Mancha",
        "region_code": "08",
        "latitude": 40.1435735,
        "longitude": -2.6896893,
        "altitude": 834.14569091797,
        "zonecode": "D2"
    },
    {
        "id": 45,
        "city": "Puebla del Salvador",
        "postal_code": "16174",
        "province": "Cuenca",
        "province_code": "16",
        "region": "Castilla-La Mancha",
        "region_code": "08",
        "latitude": 39.5655504,
        "longitude": -1.6754617,
        "altitude": 849.05285644531,
        "zonecode": "D2"
    },
    {
        "id": 46,
        "city": "Torrejoncillo del Rey",
        "postal_code": "16211",
        "province": "Cuenca",
        "province_code": "16",
        "region": "Castilla-La Mancha",
        "region_code": "08",
        "latitude": 40.0079291,
        "longitude": -2.5730514,
        "altitude": 933.51715087891,
        "zonecode": "D2"
    },
    {
        "id": 47,
        "city": "Tragacete",
        "postal_code": "16215",
        "province": "Cuenca",
        "province_code": "16",
        "region": "Castilla-La Mancha",
        "region_code": "08",
        "latitude": 40.3496027,
        "longitude": -1.8507332,
        "altitude": 1282.4645996094,
        "zonecode": "E1"
    },
    {
        "id": 48,
        "city": "Valverdejo",
        "postal_code": "16237",
        "province": "Cuenca",
        "province_code": "16",
        "region": "Castilla-La Mancha",
        "region_code": "08",
        "latitude": 39.6158743,
        "longitude": -2.0233396,
        "altitude": 869.19451904297,
        "zonecode": "D2"
    },
    {
        "id": 49,
        "city": "Villalgordo del Marquesado",
        "postal_code": "16247",
        "province": "Cuenca",
        "province_code": "16",
        "region": "Castilla-La Mancha",
        "region_code": "08",
        "latitude": 39.6822207,
        "longitude": -2.5080351,
        "altitude": 861.76879882812,
        "zonecode": "D2"
    },
    {
        "id": 50,
        "city": "Villaverde y Pasaconsol",
        "postal_code": "16273",
        "province": "Cuenca",
        "province_code": "16",
        "region": "Castilla-La Mancha",
        "region_code": "08",
        "latitude": 39.7702406,
        "longitude": -2.2667322,
        "altitude": 855.59912109375,
        "zonecode": "D2"
    },
    {
        "id": 51,
        "city": "Cantallops",
        "postal_code": "17041",
        "province": "Girona",
        "province_code": "17",
        "region": "Cataluña",
        "region_code": "09",
        "latitude": 42.4221088,
        "longitude": 2.9254799,
        "altitude": 197.92739868164,
        "zonecode": "D2"
    },
    {
        "id": 52,
        "city": "Espinelves",
        "postal_code": "17063",
        "province": "Girona",
        "province_code": "17",
        "region": "Cataluña",
        "region_code": "09",
        "latitude": 41.8697876,
        "longitude": 2.4174746,
        "altitude": 748.03137207031,
        "zonecode": "E1"
    },
    {
        "id": 53,
        "city": "Gombrèn",
        "postal_code": "17080",
        "province": "Girona",
        "province_code": "17",
        "region": "Cataluña",
        "region_code": "09",
        "latitude": 42.2477628,
        "longitude": 2.0907311,
        "altitude": 899.51202392578,
        "zonecode": "E1"
    },
    {
        "id": 54,
        "city": "Ogassa",
        "postal_code": "17112",
        "province": "Girona",
        "province_code": "17",
        "region": "Cataluña",
        "region_code": "09",
        "latitude": 42.2659846,
        "longitude": 2.2777977,
        "altitude": 954.67138671875,
        "zonecode": "E1"
    },
    {
        "id": 55,
        "city": "Olot",
        "postal_code": "17114",
        "province": "Girona",
        "province_code": "17",
        "region": "Cataluña",
        "region_code": "09",
        "latitude": 42.180867,
        "longitude": 2.4891623,
        "altitude": 433.20108032227,
        "zonecode": "D2"
    },
    {
        "id": 56,
        "city": "Les Planes d'Hostoles",
        "postal_code": "17133",
        "province": "Girona",
        "province_code": "17",
        "region": "Cataluña",
        "region_code": "09",
        "latitude": 42.0563863,
        "longitude": 2.5383647,
        "altitude": 361.16418457031,
        "zonecode": "D2"
    },
    {
        "id": 57,
        "city": "Porqueres",
        "postal_code": "17137",
        "province": "Girona",
        "province_code": "17",
        "region": "Cataluña",
        "region_code": "09",
        "latitude": 42.1201953,
        "longitude": 2.746287,
        "altitude": 174.1662902832,
        "zonecode": "D2"
    },
    {
        "id": 58,
        "city": "Santa Coloma de Farners",
        "postal_code": "17180",
        "province": "Girona",
        "province_code": "17",
        "region": "Cataluña",
        "region_code": "09",
        "latitude": 41.8611741,
        "longitude": 2.6635017,
        "altitude": 133.94189453125,
        "zonecode": "D2"
    },
    {
        "id": 59,
        "city": "Santa Pau",
        "postal_code": "17184",
        "province": "Girona",
        "province_code": "17",
        "region": "Cataluña",
        "region_code": "09",
        "latitude": 42.1471882,
        "longitude": 2.5703053,
        "altitude": 492.11959838867,
        "zonecode": "D2"
    },
    {
        "id": 60,
        "city": "Tortellà",
        "postal_code": "17200",
        "province": "Girona",
        "province_code": "17",
        "region": "Cataluña",
        "region_code": "09",
        "latitude": 42.2338828,
        "longitude": 2.6319543,
        "altitude": 281.04052734375,
        "zonecode": "D2"
    },
    {
        "id": 61,
        "city": "Agrón",
        "postal_code": "18001",
        "province": "Granada",
        "province_code": "18",
        "region": "Andalucía",
        "region_code": "01",
        "latitude": 37.0300898,
        "longitude": -3.8292747,
        "altitude": 1059.2974853516,
        "zonecode": "D3"
    },
    {
        "id": 62,
        "city": "Benamaurel",
        "postal_code": "18029",
        "province": "Granada",
        "province_code": "18",
        "region": "Andalucía",
        "region_code": "01",
        "latitude": 37.60722,
        "longitude": -2.7002508,
        "altitude": 696.81970214844,
        "zonecode": "C3"
    },
    {
        "id": 63,
        "city": "Cortes de Baza",
        "postal_code": "18053",
        "province": "Granada",
        "province_code": "18",
        "region": "Andalucía",
        "region_code": "01",
        "latitude": 37.6549785,
        "longitude": -2.7706207,
        "altitude": 705.97375488281,
        "zonecode": "C3"
    },
    {
        "id": 64,
        "city": "Íllora",
        "postal_code": "18102",
        "province": "Granada",
        "province_code": "18",
        "region": "Andalucía",
        "region_code": "01",
        "latitude": 37.2869036,
        "longitude": -3.880361,
        "altitude": 757.20849609375,
        "zonecode": "C3"
    },
    {
        "id": 65,
        "city": "Lanjarón",
        "postal_code": "18116",
        "province": "Granada",
        "province_code": "18",
        "region": "Andalucía",
        "region_code": "01",
        "latitude": 36.9187716,
        "longitude": -3.4795035,
        "altitude": 668.88879394531,
        "zonecode": "C3"
    },
    {
        "id": 66,
        "city": "Lanteira",
        "postal_code": "18117",
        "province": "Granada",
        "province_code": "18",
        "region": "Andalucía",
        "region_code": "01",
        "latitude": 37.1688826,
        "longitude": -3.1365632,
        "altitude": 1281.1577148438,
        "zonecode": "D3"
    },
    {
        "id": 67,
        "city": "Maracena",
        "postal_code": "18127",
        "province": "Granada",
        "province_code": "18",
        "region": "Andalucía",
        "region_code": "01",
        "latitude": 37.2078659,
        "longitude": -3.6329196,
        "altitude": 663.17016601562,
        "zonecode": "C3"
    },
    {
        "id": 68,
        "city": "Pulianas",
        "postal_code": "18165",
        "province": "Granada",
        "province_code": "18",
        "region": "Andalucía",
        "region_code": "01",
        "latitude": 37.2225427,
        "longitude": -3.6075172,
        "altitude": 731.91302490234,
        "zonecode": "C3"
    },
    {
        "id": 69,
        "city": "La Taha",
        "postal_code": "18901",
        "province": "Granada",
        "province_code": "18",
        "region": "Andalucía",
        "region_code": "01",
        "latitude": 36.9236067,
        "longitude": -3.3338547,
        "altitude": 1029.9488525391,
        "zonecode": "D3"
    },
    {
        "id": 70,
        "city": "Cantalojas",
        "postal_code": "19065",
        "province": "Guadalajara",
        "province_code": "19",
        "region": "Castilla-La Mancha",
        "region_code": "08",
        "latitude": 41.2359015,
        "longitude": -3.2451634,
        "altitude": 1316.634765625,
        "zonecode": "E1"
    },
    {
        "id": 71,
        "city": "Castellar de la Muela",
        "postal_code": "19076",
        "province": "Guadalajara",
        "province_code": "19",
        "region": "Castilla-La Mancha",
        "region_code": "08",
        "latitude": 40.8196278,
        "longitude": -1.7581411,
        "altitude": 1197.7940673828,
        "zonecode": "E1"
    },
    {
        "id": 72,
        "city": "Ciruelas",
        "postal_code": "19088",
        "province": "Guadalajara",
        "province_code": "19",
        "region": "Castilla-La Mancha",
        "region_code": "08",
        "latitude": 40.7525672,
        "longitude": -3.0883048,
        "altitude": 808.12634277344,
        "zonecode": "D3"
    },
    {
        "id": 73,
        "city": "Fuentelsaz",
        "postal_code": "19122",
        "province": "Guadalajara",
        "province_code": "19",
        "region": "Castilla-La Mancha",
        "region_code": "08",
        "latitude": 41.0734242,
        "longitude": -1.8300048,
        "altitude": 1118.9440917969,
        "zonecode": "E1"
    },
    {
        "id": 74,
        "city": "Galve de Sorbe",
        "postal_code": "19127",
        "province": "Guadalajara",
        "province_code": "19",
        "region": "Castilla-La Mancha",
        "region_code": "08",
        "latitude": 41.2225576,
        "longitude": -3.1836145,
        "altitude": 1364.4809570312,
        "zonecode": "E1"
    },
    {
        "id": 75,
        "city": "Majaelrayo",
        "postal_code": "19165",
        "province": "Guadalajara",
        "province_code": "19",
        "region": "Castilla-La Mancha",
        "region_code": "08",
        "latitude": 41.1124696,
        "longitude": -3.3017564,
        "altitude": 1188.6437988281,
        "zonecode": "E1"
    },
    {
        "id": 76,
        "city": "Mondéjar",
        "postal_code": "19192",
        "province": "Guadalajara",
        "province_code": "19",
        "region": "Castilla-La Mancha",
        "region_code": "08",
        "latitude": 40.32172,
        "longitude": -3.10847,
        "altitude": 814.18426513672,
        "zonecode": "D3"
    },
    {
        "id": 77,
        "city": "Traíd",
        "postal_code": "19289",
        "province": "Guadalajara",
        "province_code": "19",
        "region": "Castilla-La Mancha",
        "region_code": "08",
        "latitude": 40.6681373,
        "longitude": -1.8092862,
        "altitude": 1386.4080810547,
        "zonecode": "E1"
    },
    {
        "id": 78,
        "city": "Villel de Mesa",
        "postal_code": "19324",
        "province": "Guadalajara",
        "province_code": "19",
        "region": "Castilla-La Mancha",
        "region_code": "08",
        "latitude": 41.124236,
        "longitude": -1.9918231,
        "altitude": 937.59173583984,
        "zonecode": "D3"
    },
    {
        "id": 79,
        "city": "Zaorejas",
        "postal_code": "19333",
        "province": "Guadalajara",
        "province_code": "19",
        "region": "Castilla-La Mancha",
        "region_code": "08",
        "latitude": 40.7614467,
        "longitude": -2.2009201,
        "altitude": 1234.5407714844,
        "zonecode": "E1"
    },
    {
        "id": 80,
        "city": "Azkoitia",
        "postal_code": "20017",
        "province": "Gipuzkoa",
        "province_code": "20",
        "region": "País Vasco",
        "region_code": "16",
        "latitude": 43.1776439,
        "longitude": -2.3109203,
        "altitude": 113.75734710693,
        "zonecode": "D1"
    },
    {
        "id": 81,
        "city": "Eskoriatza",
        "postal_code": "20034",
        "province": "Gipuzkoa",
        "province_code": "20",
        "region": "País Vasco",
        "region_code": "16",
        "latitude": 43.0165575,
        "longitude": -2.5278399,
        "altitude": 282.01937866211,
        "zonecode": "D1"
    },
    {
        "id": 82,
        "city": "Hondarribia",
        "postal_code": "20036",
        "province": "Gipuzkoa",
        "province_code": "20",
        "region": "País Vasco",
        "region_code": "16",
        "latitude": 43.368603,
        "longitude": -1.7998109,
        "altitude": 24.413679122925,
        "zonecode": "D1"
    },
    {
        "id": 83,
        "city": "Pasaia",
        "postal_code": "20064",
        "province": "Gipuzkoa",
        "province_code": "20",
        "region": "País Vasco",
        "region_code": "16",
        "latitude": 43.3254703,
        "longitude": -1.9301396,
        "altitude": 56.527732849121,
        "zonecode": "D1"
    },
    {
        "id": 84,
        "city": "Soraluze-Placencia de las Armas",
        "postal_code": "20065",
        "province": "Gipuzkoa",
        "province_code": "20",
        "region": "País Vasco",
        "region_code": "16",
        "latitude": 43.1740007,
        "longitude": -2.4126639,
        "altitude": 111.16686248779,
        "zonecode": "D1"
    },
    {
        "id": 85,
        "city": "Lasarte-Oria",
        "postal_code": "20902",
        "province": "Gipuzkoa",
        "province_code": "20",
        "region": "País Vasco",
        "region_code": "16",
        "latitude": 43.2684377,
        "longitude": -2.0178149,
        "altitude": 35.490840911865,
        "zonecode": "D1"
    },
    {
        "id": 86,
        "city": "Gaztelu",
        "postal_code": "20907",
        "province": "Gipuzkoa",
        "province_code": "20",
        "region": "País Vasco",
        "region_code": "16",
        "latitude": 43.1159943,
        "longitude": -2.0239518,
        "altitude": 451.63623046875,
        "zonecode": "E1"
    },
    {
        "id": 87,
        "city": "Lepe",
        "postal_code": "21044",
        "province": "Huelva",
        "province_code": "21",
        "region": "Andalucía",
        "region_code": "01",
        "latitude": 37.2571539,
        "longitude": -7.2032754,
        "altitude": 25.373544692993,
        "zonecode": "A4"
    },
    {
        "id": 88,
        "city": "Agüero",
        "postal_code": "22004",
        "province": "Huesca",
        "province_code": "22",
        "region": "Aragón",
        "region_code": "02",
        "latitude": 42.3556663,
        "longitude": -0.7941175,
        "altitude": 688.79150390625,
        "zonecode": "D2"
    },
    {
        "id": 89,
        "city": "Castejón de Monegros",
        "postal_code": "22083",
        "province": "Huesca",
        "province_code": "22",
        "region": "Aragón",
        "region_code": "02",
        "latitude": 41.6171493,
        "longitude": -0.2397116,
        "altitude": 467.09420776367,
        "zonecode": "D2"
    },
    {
        "id": 90,
        "city": "Castejón de Sos",
        "postal_code": "22084",
        "province": "Huesca",
        "province_code": "22",
        "region": "Aragón",
        "region_code": "02",
        "latitude": 42.5122055,
        "longitude": 0.491828,
        "altitude": 907.55285644531,
        "zonecode": "E1"
    },
    {
        "id": 91,
        "city": "Hoz de Jaca",
        "postal_code": "22122",
        "province": "Huesca",
        "province_code": "22",
        "region": "Aragón",
        "region_code": "02",
        "latitude": 42.6907039,
        "longitude": -0.3060402,
        "altitude": 1266.9448242188,
        "zonecode": "E1"
    },
    {
        "id": 92,
        "city": "Huerto",
        "postal_code": "22124",
        "province": "Huesca",
        "province_code": "22",
        "region": "Aragón",
        "region_code": "02",
        "latitude": 41.9393664,
        "longitude": -0.1682271,
        "altitude": 361.36923217773,
        "zonecode": "D3"
    },
    {
        "id": 93,
        "city": "Monzón",
        "postal_code": "22158",
        "province": "Huesca",
        "province_code": "22",
        "region": "Aragón",
        "region_code": "02",
        "latitude": 41.9157645,
        "longitude": 0.1928216,
        "altitude": 277.96340942383,
        "zonecode": "D3"
    },
    {
        "id": 94,
        "city": "San Esteban de Litera",
        "postal_code": "22205",
        "province": "Huesca",
        "province_code": "22",
        "region": "Aragón",
        "region_code": "02",
        "latitude": 41.9052276,
        "longitude": 0.3269012,
        "altitude": 426.1838684082,
        "zonecode": "D2"
    },
    {
        "id": 95,
        "city": "La Sotonera",
        "postal_code": "22904",
        "province": "Huesca",
        "province_code": "22",
        "region": "Aragón",
        "region_code": "02",
        "latitude": 42.2546799,
        "longitude": -0.5446912,
        "altitude": 600.13623046875,
        "zonecode": "D2"
    },
    {
        "id": 96,
        "city": "Jimena",
        "postal_code": "23052",
        "province": "Jaén",
        "province_code": "23",
        "region": "Andalucía",
        "region_code": "01",
        "latitude": 37.8418859,
        "longitude": -3.4757149,
        "altitude": 607.77264404297,
        "zonecode": "C4"
    },
    {
        "id": 97,
        "city": "Mancha Real",
        "postal_code": "23058",
        "province": "Jaén",
        "province_code": "23",
        "region": "Andalucía",
        "region_code": "01",
        "latitude": 37.7868126,
        "longitude": -3.6103832,
        "altitude": 767.20471191406,
        "zonecode": "D3"
    },
    {
        "id": 98,
        "city": "Marmolejo",
        "postal_code": "23059",
        "province": "Jaén",
        "province_code": "23",
        "region": "Andalucía",
        "region_code": "01",
        "latitude": 38.0449522,
        "longitude": -4.1692941,
        "altitude": 248.75456237793,
        "zonecode": "B4"
    },
    {
        "id": 99,
        "city": "Torredonjimeno",
        "postal_code": "23087",
        "province": "Jaén",
        "province_code": "23",
        "region": "Andalucía",
        "region_code": "01",
        "latitude": 37.7665084,
        "longitude": -3.9546877,
        "altitude": 599.85198974609,
        "zonecode": "C4"
    },
    {
        "id": 100,
        "city": "Villarrodrigo",
        "postal_code": "23101",
        "province": "Jaén",
        "province_code": "23",
        "region": "Andalucía",
        "region_code": "01",
        "latitude": 38.4876071,
        "longitude": -2.636918,
        "altitude": 871.69952392578,
        "zonecode": "D3"
    },
    {
        "id": 101,
        "city": "Alija del Infantado",
        "postal_code": "24003",
        "province": "León",
        "province_code": "24",
        "region": "Castilla y León",
        "region_code": "07",
        "latitude": 42.138709,
        "longitude": -5.8340651,
        "altitude": 737.02697753906,
        "zonecode": "E1"
    },
    {
        "id": 102,
        "city": "Almanza",
        "postal_code": "24004",
        "province": "León",
        "province_code": "24",
        "region": "Castilla y León",
        "region_code": "07",
        "latitude": 42.6576228,
        "longitude": -5.0358019,
        "altitude": 914.44750976562,
        "zonecode": "E1"
    },
    {
        "id": 103,
        "city": "Cistierna",
        "postal_code": "24056",
        "province": "León",
        "province_code": "24",
        "region": "Castilla y León",
        "region_code": "07",
        "latitude": 42.8039686,
        "longitude": -5.1288744,
        "altitude": 938.78033447266,
        "zonecode": "E1"
    },
    {
        "id": 104,
        "city": "Corbillos de los Oteros",
        "postal_code": "24058",
        "province": "León",
        "province_code": "24",
        "region": "Castilla y León",
        "region_code": "07",
        "latitude": 42.407444,
        "longitude": -5.4591063,
        "altitude": 792.30395507812,
        "zonecode": "E1"
    },
    {
        "id": 105,
        "city": "Santa María del Monte de Cea",
        "postal_code": "24156",
        "province": "León",
        "province_code": "24",
        "region": "Castilla y León",
        "region_code": "07",
        "latitude": 42.4917777,
        "longitude": -5.1174762,
        "altitude": 889.57623291016,
        "zonecode": "E1"
    },
    {
        "id": 106,
        "city": "Valdepolo",
        "postal_code": "24180",
        "province": "León",
        "province_code": "24",
        "region": "Castilla y León",
        "region_code": "07",
        "latitude": 42.5770731,
        "longitude": -5.226015,
        "altitude": 878.40496826172,
        "zonecode": "E1"
    },
    {
        "id": 107,
        "city": "Valverde-Enrique",
        "postal_code": "24190",
        "province": "León",
        "province_code": "24",
        "region": "Castilla y León",
        "region_code": "07",
        "latitude": 42.304223,
        "longitude": -5.2991426,
        "altitude": 833.38244628906,
        "zonecode": "E1"
    },
    {
        "id": 108,
        "city": "Villadangos del Páramo",
        "postal_code": "24205",
        "province": "León",
        "province_code": "24",
        "region": "Castilla y León",
        "region_code": "07",
        "latitude": 42.5168663,
        "longitude": -5.7671402,
        "altitude": 896.75634765625,
        "zonecode": "E1"
    },
    {
        "id": 109,
        "city": "Villamañán",
        "postal_code": "24212",
        "province": "León",
        "province_code": "24",
        "region": "Castilla y León",
        "region_code": "07",
        "latitude": 42.3207923,
        "longitude": -5.5840465,
        "altitude": 765.35711669922,
        "zonecode": "E1"
    },
    {
        "id": 110,
        "city": "Ciutadilla",
        "postal_code": "25074",
        "province": "Lleida",
        "province_code": "25",
        "region": "Cataluña",
        "region_code": "09",
        "latitude": 41.5612352,
        "longitude": 1.1395,
        "altitude": 513.05737304688,
        "zonecode": "D3"
    },
    {
        "id": 111,
        "city": "Farrera",
        "postal_code": "25089",
        "province": "Lleida",
        "province_code": "25",
        "region": "Cataluña",
        "region_code": "09",
        "latitude": 42.497024,
        "longitude": 1.2719532,
        "altitude": 1352.5823974609,
        "zonecode": "E1"
    },
    {
        "id": 112,
        "city": "Ivars de Noguera",
        "postal_code": "25112",
        "province": "Lleida",
        "province_code": "25",
        "region": "Cataluña",
        "region_code": "09",
        "latitude": 41.8498111,
        "longitude": 0.5865375,
        "altitude": 332.68655395508,
        "zonecode": "D3"
    },
    {
        "id": 113,
        "city": "Menàrguens",
        "postal_code": "25134",
        "province": "Lleida",
        "province_code": "25",
        "region": "Cataluña",
        "region_code": "09",
        "latitude": 41.7321109,
        "longitude": 0.744964,
        "altitude": 228.42378234863,
        "zonecode": "D3"
    },
    {
        "id": 114,
        "city": "Salàs de Pallars",
        "postal_code": "25190",
        "province": "Lleida",
        "province_code": "25",
        "region": "Cataluña",
        "region_code": "09",
        "latitude": 42.2130504,
        "longitude": 0.9316119,
        "altitude": 575.95458984375,
        "zonecode": "D3"
    },
    {
        "id": 115,
        "city": "Tiurana",
        "postal_code": "25222",
        "province": "Lleida",
        "province_code": "25",
        "region": "Cataluña",
        "region_code": "09",
        "latitude": 41.9756735,
        "longitude": 1.255942,
        "altitude": 650.42462158203,
        "zonecode": "E1"
    },
    {
        "id": 116,
        "city": "Alesanco",
        "postal_code": "26009",
        "province": "La Rioja",
        "province_code": "26",
        "region": "La Rioja",
        "region_code": "17",
        "latitude": 42.4142701,
        "longitude": -2.8160911,
        "altitude": 566.92987060547,
        "zonecode": "D2"
    },
    {
        "id": 117,
        "city": "Baños de Rioja",
        "postal_code": "26025",
        "province": "La Rioja",
        "province_code": "26",
        "region": "La Rioja",
        "region_code": "17",
        "latitude": 42.5123119,
        "longitude": -2.9453802,
        "altitude": 549.97155761719,
        "zonecode": "D2"
    },
    {
        "id": 118,
        "city": "Briñas",
        "postal_code": "26033",
        "province": "La Rioja",
        "province_code": "26",
        "region": "La Rioja",
        "region_code": "17",
        "latitude": 42.6023759,
        "longitude": -2.8334038,
        "altitude": 465.51391601562,
        "zonecode": "D2"
    },
    {
        "id": 119,
        "city": "Murillo de Río Leza",
        "postal_code": "26099",
        "province": "La Rioja",
        "province_code": "26",
        "region": "La Rioja",
        "region_code": "17",
        "latitude": 42.3998055,
        "longitude": -2.3246454,
        "altitude": 417.19738769531,
        "zonecode": "D2"
    },
    {
        "id": 120,
        "city": "Villoslada de Cameros",
        "postal_code": "26177",
        "province": "La Rioja",
        "province_code": "26",
        "region": "La Rioja",
        "region_code": "17",
        "latitude": 42.11201,
        "longitude": -2.6741622,
        "altitude": 1034.0555419922,
        "zonecode": "E1"
    },
    {
        "id": 121,
        "city": "Zorraquín",
        "postal_code": "26183",
        "province": "La Rioja",
        "province_code": "26",
        "region": "La Rioja",
        "region_code": "17",
        "latitude": 42.3257474,
        "longitude": -3.0379043,
        "altitude": 855.93487548828,
        "zonecode": "E1"
    },
    {
        "id": 122,
        "city": "Castro de Rei",
        "postal_code": "27010",
        "province": "Lugo",
        "province_code": "27",
        "region": "Galicia",
        "region_code": "12",
        "latitude": 43.2086787,
        "longitude": -7.4010613,
        "altitude": 425.79846191406,
        "zonecode": "D1"
    },
    {
        "id": 123,
        "city": "Monterroso",
        "postal_code": "27032",
        "province": "Lugo",
        "province_code": "27",
        "region": "Galicia",
        "region_code": "12",
        "latitude": 42.7935801,
        "longitude": -7.8342687,
        "altitude": 549.43603515625,
        "zonecode": "E1"
    },
    {
        "id": 124,
        "city": "O Saviñao",
        "postal_code": "27058",
        "province": "Lugo",
        "province_code": "27",
        "region": "Galicia",
        "region_code": "12",
        "latitude": 42.6470935,
        "longitude": -7.654811,
        "altitude": 457.96722412109,
        "zonecode": "D1"
    },
    {
        "id": 125,
        "city": "Aranjuez",
        "postal_code": "28013",
        "province": "Madrid",
        "province_code": "28",
        "region": "Comunidad de Madrid",
        "region_code": "13",
        "latitude": 40.0305018,
        "longitude": -3.6040527,
        "altitude": 501.11608886719,
        "zonecode": "D3"
    },
    {
        "id": 126,
        "city": "Corpa",
        "postal_code": "28048",
        "province": "Madrid",
        "province_code": "28",
        "region": "Comunidad de Madrid",
        "region_code": "13",
        "latitude": 40.4254386,
        "longitude": -3.2640205,
        "altitude": 827.7861328125,
        "zonecode": "D3"
    },
    {
        "id": 127,
        "city": "Chinchón",
        "postal_code": "28052",
        "province": "Madrid",
        "province_code": "28",
        "region": "Comunidad de Madrid",
        "region_code": "13",
        "latitude": 40.1402665,
        "longitude": -3.4221687,
        "altitude": 735.45416259766,
        "zonecode": "D3"
    },
    {
        "id": 128,
        "city": "Madrid",
        "postal_code": "28079",
        "province": "Madrid",
        "province_code": "28",
        "region": "Comunidad de Madrid",
        "region_code": "13",
        "latitude": 40.4167279,
        "longitude": -3.7032905,
        "altitude": 648.30218505859,
        "zonecode": "D3"
    },
    {
        "id": 129,
        "city": "Villamantilla",
        "postal_code": "28175",
        "province": "Madrid",
        "province_code": "28",
        "region": "Comunidad de Madrid",
        "region_code": "13",
        "latitude": 40.3418042,
        "longitude": -4.1302671,
        "altitude": 569.1083984375,
        "zonecode": "D3"
    },
    {
        "id": 130,
        "city": "Almogía",
        "postal_code": "29011",
        "province": "Málaga",
        "province_code": "29",
        "region": "Andalucía",
        "region_code": "01",
        "latitude": 36.828836,
        "longitude": -4.5411443,
        "altitude": 411.24459838867,
        "zonecode": "C3"
    },
    {
        "id": 131,
        "city": "Ardales",
        "postal_code": "29018",
        "province": "Málaga",
        "province_code": "29",
        "region": "Andalucía",
        "region_code": "01",
        "latitude": 36.8777175,
        "longitude": -4.8462303,
        "altitude": 416.10037231445,
        "zonecode": "C3"
    },
    {
        "id": 132,
        "city": "Marbella",
        "postal_code": "29069",
        "province": "Málaga",
        "province_code": "29",
        "region": "Andalucía",
        "region_code": "01",
        "latitude": 36.5102831,
        "longitude": -4.8852579,
        "altitude": 25.275922775269,
        "zonecode": "A3"
    },
    {
        "id": 133,
        "city": "Ceutí",
        "postal_code": "30018",
        "province": "Murcia",
        "province_code": "30",
        "region": "Región de Murcia",
        "region_code": "14",
        "latitude": 38.0800864,
        "longitude": -1.272254,
        "altitude": 91.598937988281,
        "zonecode": "B3"
    },
    {
        "id": 134,
        "city": "Arbizu",
        "postal_code": "31027",
        "province": "Navarra",
        "province_code": "31",
        "region": "Comunidad Foral de Navarra",
        "region_code": "15",
        "latitude": 42.9159148,
        "longitude": -2.0392834,
        "altitude": 491.97198486328,
        "zonecode": "D1"
    },
    {
        "id": 135,
        "city": "Bakaiku",
        "postal_code": "31044",
        "province": "Navarra",
        "province_code": "31",
        "region": "Comunidad Foral de Navarra",
        "region_code": "15",
        "latitude": 42.8914257,
        "longitude": -2.1026884,
        "altitude": 517.68316650391,
        "zonecode": "D1"
    },
    {
        "id": 136,
        "city": "Cadreita",
        "postal_code": "31064",
        "province": "Navarra",
        "province_code": "31",
        "region": "Comunidad Foral de Navarra",
        "region_code": "15",
        "latitude": 42.2176452,
        "longitude": -1.6918635,
        "altitude": 289.60064697266,
        "zonecode": "D2"
    },
    {
        "id": 137,
        "city": "Cárcar",
        "postal_code": "31066",
        "province": "Navarra",
        "province_code": "31",
        "region": "Comunidad Foral de Navarra",
        "region_code": "15",
        "latitude": 42.3936379,
        "longitude": -1.9774723,
        "altitude": 416.57577514648,
        "zonecode": "D1"
    },
    {
        "id": 138,
        "city": "Desojo",
        "postal_code": "31079",
        "province": "Navarra",
        "province_code": "31",
        "region": "Comunidad Foral de Navarra",
        "region_code": "15",
        "latitude": 42.5878674,
        "longitude": -2.2747346,
        "altitude": 529.47875976562,
        "zonecode": "D1"
    },
    {
        "id": 139,
        "city": "Eulate",
        "postal_code": "31100",
        "province": "Navarra",
        "province_code": "31",
        "region": "Comunidad Foral de Navarra",
        "region_code": "15",
        "latitude": 42.776544,
        "longitude": -2.2086887,
        "altitude": 731.54675292969,
        "zonecode": "E1"
    },
    {
        "id": 140,
        "city": "Iza",
        "postal_code": "31131",
        "province": "Navarra",
        "province_code": "31",
        "region": "Comunidad Foral de Navarra",
        "region_code": "15",
        "latitude": 42.8374453,
        "longitude": -1.7294142,
        "altitude": 442.31420898438,
        "zonecode": "D1"
    },
    {
        "id": 141,
        "city": "Lakuntza",
        "postal_code": "31138",
        "province": "Navarra",
        "province_code": "31",
        "region": "Comunidad Foral de Navarra",
        "region_code": "15",
        "latitude": 42.9226128,
        "longitude": -2.0260945,
        "altitude": 480.87969970703,
        "zonecode": "D1"
    },
    {
        "id": 142,
        "city": "Lerín",
        "postal_code": "31152",
        "province": "Navarra",
        "province_code": "31",
        "region": "Comunidad Foral de Navarra",
        "region_code": "15",
        "latitude": 42.4837725,
        "longitude": -1.9722513,
        "altitude": 434.20620727539,
        "zonecode": "D1"
    },
    {
        "id": 143,
        "city": "Murchante",
        "postal_code": "31176",
        "province": "Navarra",
        "province_code": "31",
        "region": "Comunidad Foral de Navarra",
        "region_code": "15",
        "latitude": 42.0328829,
        "longitude": -1.6554235,
        "altitude": 323.82473754883,
        "zonecode": "D2"
    },
    {
        "id": 144,
        "city": "Muruzábal",
        "postal_code": "31180",
        "province": "Navarra",
        "province_code": "31",
        "region": "Comunidad Foral de Navarra",
        "region_code": "15",
        "latitude": 42.6884788,
        "longitude": -1.7703131,
        "altitude": 442.71881103516,
        "zonecode": "D1"
    },
    {
        "id": 145,
        "city": "Oiz",
        "postal_code": "31187",
        "province": "Navarra",
        "province_code": "31",
        "region": "Comunidad Foral de Navarra",
        "region_code": "15",
        "latitude": 43.1099404,
        "longitude": -1.6860918,
        "altitude": 188.49942016602,
        "zonecode": "D2"
    },
    {
        "id": 146,
        "city": "Olazti",
        "postal_code": "31189",
        "province": "Navarra",
        "province_code": "31",
        "region": "Comunidad Foral de Navarra",
        "region_code": "15",
        "latitude": 42.8756437,
        "longitude": -2.1970912,
        "altitude": 546.802734375,
        "zonecode": "D1"
    },
    {
        "id": 147,
        "city": "Zizur Mayor",
        "postal_code": "31907",
        "province": "Navarra",
        "province_code": "31",
        "region": "Comunidad Foral de Navarra",
        "region_code": "15",
        "latitude": 42.7855575,
        "longitude": -1.6882181,
        "altitude": 439.85635375977,
        "zonecode": "D1"
    },
    {
        "id": 148,
        "city": "Beade",
        "postal_code": "32010",
        "province": "Ourense",
        "province_code": "32",
        "region": "Galicia",
        "region_code": "12",
        "latitude": 42.329242,
        "longitude": -8.1278489,
        "altitude": 125.57305908203,
        "zonecode": "C3"
    },
    {
        "id": 149,
        "city": "O Irixo",
        "postal_code": "32035",
        "province": "Ourense",
        "province_code": "32",
        "region": "Galicia",
        "region_code": "12",
        "latitude": 42.5121953,
        "longitude": -8.1181975,
        "altitude": 515.05407714844,
        "zonecode": "D2"
    },
    {
        "id": 150,
        "city": "Maceda",
        "postal_code": "32043",
        "province": "Ourense",
        "province_code": "32",
        "region": "Galicia",
        "region_code": "12",
        "latitude": 42.268791,
        "longitude": -7.6520984,
        "altitude": 597.58483886719,
        "zonecode": "D2"
    },
    {
        "id": 151,
        "city": "Parada de Sil",
        "postal_code": "32057",
        "province": "Ourense",
        "province_code": "32",
        "region": "Galicia",
        "region_code": "12",
        "latitude": 42.3824279,
        "longitude": -7.5677208,
        "altitude": 652.26782226562,
        "zonecode": "D2"
    },
    {
        "id": 152,
        "city": "Taboadela",
        "postal_code": "32079",
        "province": "Ourense",
        "province_code": "32",
        "region": "Galicia",
        "region_code": "12",
        "latitude": 42.2410169,
        "longitude": -7.8256868,
        "altitude": 385.61282348633,
        "zonecode": "D2"
    },
    {
        "id": 153,
        "city": "Allande",
        "postal_code": "33001",
        "province": "Asturias",
        "province_code": "33",
        "region": "Principado de Asturias",
        "region_code": "03",
        "latitude": 43.2488376,
        "longitude": -6.7065914,
        "altitude": 677.42553710938,
        "zonecode": "E1"
    },
    {
        "id": 154,
        "city": "Villanueva de Oscos",
        "postal_code": "33075",
        "province": "Asturias",
        "province_code": "33",
        "region": "Principado de Asturias",
        "region_code": "03",
        "latitude": 43.3118384,
        "longitude": -6.9863552,
        "altitude": 650.21051025391,
        "zonecode": "E1"
    },
    {
        "id": 155,
        "city": "Castrillo de Villavega",
        "postal_code": "34052",
        "province": "Palencia",
        "province_code": "34",
        "region": "Castilla y León",
        "region_code": "07",
        "latitude": 42.4543635,
        "longitude": -4.4819074,
        "altitude": 846.61547851562,
        "zonecode": "E1"
    },
    {
        "id": 156,
        "city": "Hornillos de Cerrato",
        "postal_code": "34087",
        "province": "Palencia",
        "province_code": "34",
        "region": "Castilla y León",
        "region_code": "07",
        "latitude": 41.9883267,
        "longitude": -4.2737215,
        "altitude": 785.82458496094,
        "zonecode": "D1"
    },
    {
        "id": 157,
        "city": "La Vid de Ojeda",
        "postal_code": "34093",
        "province": "Palencia",
        "province_code": "34",
        "region": "Castilla y León",
        "region_code": "07",
        "latitude": 42.6599195,
        "longitude": -4.3854241,
        "altitude": 878.71520996094,
        "zonecode": "E1"
    },
    {
        "id": 158,
        "city": "La Serna",
        "postal_code": "34175",
        "province": "Palencia",
        "province_code": "34",
        "region": "Castilla y León",
        "region_code": "07",
        "latitude": 42.4161526,
        "longitude": -4.6640878,
        "altitude": 869.14007568359,
        "zonecode": "E1"
    },
    {
        "id": 159,
        "city": "Villabasta de Valdavia",
        "postal_code": "34202",
        "province": "Palencia",
        "province_code": "34",
        "region": "Castilla y León",
        "region_code": "07",
        "latitude": 42.5607461,
        "longitude": -4.6026287,
        "altitude": 923.25622558594,
        "zonecode": "E1"
    },
    {
        "id": 160,
        "city": "Loma de Ucieza",
        "postal_code": "34903",
        "province": "Palencia",
        "province_code": "34",
        "region": "Castilla y León",
        "region_code": "07",
        "latitude": 42.4697734,
        "longitude": -4.5727598,
        "altitude": 880.57733154297,
        "zonecode": "E1"
    },
    {
        "id": 161,
        "city": "A Estrada",
        "postal_code": "36017",
        "province": "Pontevedra",
        "province_code": "36",
        "region": "Galicia",
        "region_code": "12",
        "latitude": 42.6898986,
        "longitude": -8.4912054,
        "altitude": 298.93768310547,
        "zonecode": "C1"
    },
    {
        "id": 162,
        "city": "As Neves",
        "postal_code": "36034",
        "province": "Pontevedra",
        "province_code": "36",
        "region": "Galicia",
        "region_code": "12",
        "latitude": 42.0878784,
        "longitude": -8.414673,
        "altitude": 159.40155029297,
        "zonecode": "C1"
    },
    {
        "id": 163,
        "city": "Portas",
        "postal_code": "36040",
        "province": "Pontevedra",
        "province_code": "36",
        "region": "Galicia",
        "region_code": "12",
        "latitude": 42.5700111,
        "longitude": -8.6655592,
        "altitude": 38.803199768066,
        "zonecode": "C1"
    },
    {
        "id": 164,
        "city": "Abusejo",
        "postal_code": "37001",
        "province": "Salamanca",
        "province_code": "37",
        "region": "Castilla y León",
        "region_code": "07",
        "latitude": 40.7090596,
        "longitude": -6.1414321,
        "altitude": 841.8603515625,
        "zonecode": "D2"
    },
    {
        "id": 165,
        "city": "Alba de Tormes",
        "postal_code": "37008",
        "province": "Salamanca",
        "province_code": "37",
        "region": "Castilla y León",
        "region_code": "07",
        "latitude": 40.8247618,
        "longitude": -5.51187,
        "altitude": 842.49493408203,
        "zonecode": "D2"
    },
    {
        "id": 166,
        "city": "Barbalos",
        "postal_code": "37041",
        "province": "Salamanca",
        "province_code": "37",
        "region": "Castilla y León",
        "region_code": "07",
        "latitude": 40.6768223,
        "longitude": -5.9426223,
        "altitude": 906.203125,
        "zonecode": "E1"
    },
    {
        "id": 167,
        "city": "El Bodón",
        "postal_code": "37054",
        "province": "Salamanca",
        "province_code": "37",
        "region": "Castilla y León",
        "region_code": "07",
        "latitude": 40.487851,
        "longitude": -6.5750022,
        "altitude": 792.78460693359,
        "zonecode": "D2"
    },
    {
        "id": 168,
        "city": "Brincones",
        "postal_code": "37058",
        "province": "Salamanca",
        "province_code": "37",
        "region": "Castilla y León",
        "region_code": "07",
        "latitude": 41.1130872,
        "longitude": -6.3485326,
        "altitude": 767.34252929688,
        "zonecode": "D2"
    },
    {
        "id": 169,
        "city": "Endrinal",
        "postal_code": "37124",
        "province": "Salamanca",
        "province_code": "37",
        "region": "Castilla y León",
        "region_code": "07",
        "latitude": 40.5911921,
        "longitude": -5.8044027,
        "altitude": 924.10003662109,
        "zonecode": "E1"
    },
    {
        "id": 170,
        "city": "Escurial de la Sierra",
        "postal_code": "37125",
        "province": "Salamanca",
        "province_code": "37",
        "region": "Castilla y León",
        "region_code": "07",
        "latitude": 40.6163742,
        "longitude": -5.9561644,
        "altitude": 957.02844238281,
        "zonecode": "E1"
    },
    {
        "id": 171,
        "city": "Frades de la Sierra",
        "postal_code": "37131",
        "province": "Salamanca",
        "province_code": "37",
        "region": "Castilla y León",
        "region_code": "07",
        "latitude": 40.6561134,
        "longitude": -5.7839772,
        "altitude": 951.41217041016,
        "zonecode": "E1"
    },
    {
        "id": 172,
        "city": "Guijo de Ávila",
        "postal_code": "37155",
        "province": "Salamanca",
        "province_code": "37",
        "region": "Castilla y León",
        "region_code": "07",
        "latitude": 40.5231725,
        "longitude": -5.6300233,
        "altitude": 920.46563720703,
        "zonecode": "E1"
    },
    {
        "id": 173,
        "city": "Matilla de los Caños del Río",
        "postal_code": "37187",
        "province": "Salamanca",
        "province_code": "37",
        "region": "Castilla y León",
        "region_code": "07",
        "latitude": 40.8248435,
        "longitude": -5.942292,
        "altitude": 818.88531494141,
        "zonecode": "D2"
    },
    {
        "id": 174,
        "city": "Navamorales",
        "postal_code": "37218",
        "province": "Salamanca",
        "province_code": "37",
        "region": "Castilla y León",
        "region_code": "07",
        "latitude": 40.4765489,
        "longitude": -5.4784365,
        "altitude": 994.0185546875,
        "zonecode": "E1"
    },
    {
        "id": 175,
        "city": "Puerto Seguro",
        "postal_code": "37264",
        "province": "Salamanca",
        "province_code": "37",
        "region": "Castilla y León",
        "region_code": "07",
        "latitude": 40.8270226,
        "longitude": -6.7607749,
        "altitude": 637.59643554688,
        "zonecode": "D2"
    },
    {
        "id": 176,
        "city": "San Muñoz",
        "postal_code": "37289",
        "province": "Salamanca",
        "province_code": "37",
        "region": "Castilla y León",
        "region_code": "07",
        "latitude": 40.7830371,
        "longitude": -6.126855,
        "altitude": 781.21130371094,
        "zonecode": "D2"
    },
    {
        "id": 177,
        "city": "Santiago de la Puebla",
        "postal_code": "37296",
        "province": "Salamanca",
        "province_code": "37",
        "region": "Castilla y León",
        "region_code": "07",
        "latitude": 40.801521,
        "longitude": -5.2801988,
        "altitude": 869.60192871094,
        "zonecode": "E1"
    },
    {
        "id": 178,
        "city": "Santiz",
        "postal_code": "37299",
        "province": "Salamanca",
        "province_code": "37",
        "region": "Castilla y León",
        "region_code": "07",
        "latitude": 41.2066096,
        "longitude": -5.8973938,
        "altitude": 894.80474853516,
        "zonecode": "E1"
    },
    {
        "id": 179,
        "city": "La Tala",
        "postal_code": "37315",
        "province": "Salamanca",
        "province_code": "37",
        "region": "Castilla y León",
        "region_code": "07",
        "latitude": 40.5898096,
        "longitude": -5.5368593,
        "altitude": 923.26898193359,
        "zonecode": "E1"
    },
    {
        "id": 180,
        "city": "Topas",
        "postal_code": "37323",
        "province": "Salamanca",
        "province_code": "37",
        "region": "Castilla y León",
        "region_code": "07",
        "latitude": 41.1571393,
        "longitude": -5.6339659,
        "altitude": 824.09521484375,
        "zonecode": "D2"
    },
    {
        "id": 181,
        "city": "Zamayón",
        "postal_code": "37379",
        "province": "Salamanca",
        "province_code": "37",
        "region": "Castilla y León",
        "region_code": "07",
        "latitude": 41.1479772,
        "longitude": -5.8307685,
        "altitude": 809.17669677734,
        "zonecode": "D2"
    },
    {
        "id": 182,
        "city": "Arredondo",
        "postal_code": "39007",
        "province": "Cantabria",
        "province_code": "39",
        "region": "Cantabria",
        "region_code": "06",
        "latitude": 43.2741785,
        "longitude": -3.6002547,
        "altitude": 162.99113464355,
        "zonecode": "D1"
    },
    {
        "id": 183,
        "city": "Ribamontán al Monte",
        "postal_code": "39062",
        "province": "Cantabria",
        "province_code": "39",
        "region": "Cantabria",
        "region_code": "06",
        "latitude": 43.4066501,
        "longitude": -3.642048,
        "altitude": 55.326011657715,
        "zonecode": "C1"
    },
    {
        "id": 184,
        "city": "Villafufre",
        "postal_code": "39100",
        "province": "Cantabria",
        "province_code": "39",
        "region": "Cantabria",
        "region_code": "06",
        "latitude": 43.2663814,
        "longitude": -3.8941712,
        "altitude": 236.27563476562,
        "zonecode": "D1"
    },
    {
        "id": 185,
        "city": "Bercimuel",
        "postal_code": "40029",
        "province": "Segovia",
        "province_code": "40",
        "region": "Castilla y León",
        "region_code": "07",
        "latitude": 41.399158,
        "longitude": -3.570514,
        "altitude": 969.51678466797,
        "zonecode": "D2"
    },
    {
        "id": 186,
        "city": "Escalona del Prado",
        "postal_code": "40073",
        "province": "Segovia",
        "province_code": "40",
        "region": "Castilla y León",
        "region_code": "07",
        "latitude": 41.1657918,
        "longitude": -4.1245115,
        "altitude": 890.46655273438,
        "zonecode": "D2"
    },
    {
        "id": 187,
        "city": "Fresneda de Cuéllar",
        "postal_code": "40078",
        "province": "Segovia",
        "province_code": "40",
        "region": "Castilla y León",
        "region_code": "07",
        "latitude": 41.3185419,
        "longitude": -4.449727,
        "altitude": 764.17407226562,
        "zonecode": "D2"
    },
    {
        "id": 188,
        "city": "Ortigosa de Pestaño",
        "postal_code": "40151",
        "province": "Segovia",
        "province_code": "40",
        "region": "Castilla y León",
        "region_code": "07",
        "latitude": 41.0869393,
        "longitude": -4.3949217,
        "altitude": 860.96380615234,
        "zonecode": "D2"
    },
    {
        "id": 189,
        "city": "Prádena",
        "postal_code": "40162",
        "province": "Segovia",
        "province_code": "40",
        "region": "Castilla y León",
        "region_code": "07",
        "latitude": 41.138438,
        "longitude": -3.6895825,
        "altitude": 1132.5880126953,
        "zonecode": "E1"
    },
    {
        "id": 190,
        "city": "Segovia",
        "postal_code": "40194",
        "province": "Segovia",
        "province_code": "40",
        "region": "Castilla y León",
        "region_code": "07",
        "latitude": 40.9429032,
        "longitude": -4.1088069,
        "altitude": 1023.6622314453,
        "zonecode": "D2"
    },
    {
        "id": 191,
        "city": "Urueñas",
        "postal_code": "40210",
        "province": "Segovia",
        "province_code": "40",
        "region": "Castilla y León",
        "region_code": "07",
        "latitude": 41.3551693,
        "longitude": -3.7733518,
        "altitude": 1056.5632324219,
        "zonecode": "E1"
    },
    {
        "id": 192,
        "city": "Castilblanco de los Arroyos",
        "postal_code": "41027",
        "province": "Sevilla",
        "province_code": "41",
        "region": "Andalucía",
        "region_code": "01",
        "latitude": 37.6741826,
        "longitude": -5.9898676,
        "altitude": 333.59176635742,
        "zonecode": "C4"
    },
    {
        "id": 193,
        "city": "Marinaleda",
        "postal_code": "41061",
        "province": "Sevilla",
        "province_code": "41",
        "region": "Andalucía",
        "region_code": "01",
        "latitude": 37.3717701,
        "longitude": -4.9591166,
        "altitude": 205.22583007812,
        "zonecode": "C4"
    },
    {
        "id": 194,
        "city": "Peñaflor",
        "postal_code": "41074",
        "province": "Sevilla",
        "province_code": "41",
        "region": "Andalucía",
        "region_code": "01",
        "latitude": 37.7102676,
        "longitude": -5.3453537,
        "altitude": 72.074546813965,
        "zonecode": "B4"
    },
    {
        "id": 195,
        "city": "Adradas",
        "postal_code": "42003",
        "province": "Soria",
        "province_code": "42",
        "region": "Castilla y León",
        "region_code": "07",
        "latitude": 41.3502864,
        "longitude": -2.4733971,
        "altitude": 1054.0018310547,
        "zonecode": "E1"
    },
    {
        "id": 196,
        "city": "Arancón",
        "postal_code": "42024",
        "province": "Soria",
        "province_code": "42",
        "region": "Castilla y León",
        "region_code": "07",
        "latitude": 41.800551,
        "longitude": -2.2811991,
        "altitude": 1065.2983398438,
        "zonecode": "E1"
    },
    {
        "id": 197,
        "city": "Ausejo de la Sierra",
        "postal_code": "42028",
        "province": "Soria",
        "province_code": "42",
        "region": "Castilla y León",
        "region_code": "07",
        "latitude": 41.8947246,
        "longitude": -2.3741121,
        "altitude": 1097.2934570312,
        "zonecode": "E1"
    },
    {
        "id": 198,
        "city": "Bayubas de Abajo",
        "postal_code": "42032",
        "province": "Soria",
        "province_code": "42",
        "region": "Castilla y León",
        "region_code": "07",
        "latitude": 41.5267459,
        "longitude": -2.8970015,
        "altitude": 921.34997558594,
        "zonecode": "E1"
    },
    {
        "id": 199,
        "city": "Castilfrío de la Sierra",
        "postal_code": "42056",
        "province": "Soria",
        "province_code": "42",
        "region": "Castilla y León",
        "region_code": "07",
        "latitude": 41.9192065,
        "longitude": -2.3058341,
        "altitude": 1202.7769775391,
        "zonecode": "E1"
    },
    {
        "id": 200,
        "city": "Tajahuerce",
        "postal_code": "42176",
        "province": "Soria",
        "province_code": "42",
        "region": "Castilla y León",
        "region_code": "07",
        "latitude": 41.7453956,
        "longitude": -2.1597595,
        "altitude": 1058.3286132812,
        "zonecode": "E1"
    },
    {
        "id": 201,
        "city": "Valdeprado",
        "postal_code": "42196",
        "province": "Soria",
        "province_code": "42",
        "region": "Castilla y León",
        "region_code": "07",
        "latitude": 41.9381663,
        "longitude": -2.1088216,
        "altitude": 850.39465332031,
        "zonecode": "E1"
    },
    {
        "id": 202,
        "city": "Villanueva de Gormaz",
        "postal_code": "42206",
        "province": "Soria",
        "province_code": "42",
        "region": "Castilla y León",
        "region_code": "07",
        "latitude": 41.4675311,
        "longitude": -3.0620023,
        "altitude": 967.89056396484,
        "zonecode": "E1"
    },
    {
        "id": 203,
        "city": "Barberà de la Conca",
        "postal_code": "43021",
        "province": "Tarragona",
        "province_code": "43",
        "region": "Cataluña",
        "region_code": "09",
        "latitude": 41.4109456,
        "longitude": 1.2277556,
        "altitude": 460.29321289062,
        "zonecode": "C3"
    },
    {
        "id": 204,
        "city": "Gratallops",
        "postal_code": "43069",
        "province": "Tarragona",
        "province_code": "43",
        "region": "Cataluña",
        "region_code": "09",
        "latitude": 41.1931656,
        "longitude": 0.7767556,
        "altitude": 320.05258178711,
        "zonecode": "C3"
    },
    {
        "id": 205,
        "city": "El Milà",
        "postal_code": "43083",
        "province": "Tarragona",
        "province_code": "43",
        "region": "Cataluña",
        "region_code": "09",
        "latitude": 41.2485161,
        "longitude": 1.2064251,
        "altitude": 165.48466491699,
        "zonecode": "C3"
    },
    {
        "id": 206,
        "city": "Mont-ral",
        "postal_code": "43091",
        "province": "Tarragona",
        "province_code": "43",
        "region": "Cataluña",
        "region_code": "09",
        "latitude": 41.2868561,
        "longitude": 1.0979443,
        "altitude": 861.02935791016,
        "zonecode": "D3"
    },
    {
        "id": 207,
        "city": "Els Pallaresos",
        "postal_code": "43100",
        "province": "Tarragona",
        "province_code": "43",
        "region": "Cataluña",
        "region_code": "09",
        "latitude": 41.1752824,
        "longitude": 1.2704491,
        "altitude": 126.88102722168,
        "zonecode": "C3"
    },
    {
        "id": 208,
        "city": "Santa Coloma de Queralt",
        "postal_code": "43139",
        "province": "Tarragona",
        "province_code": "43",
        "region": "Cataluña",
        "region_code": "09",
        "latitude": 41.5322215,
        "longitude": 1.3829246,
        "altitude": 677.0751953125,
        "zonecode": "D3"
    },
    {
        "id": 209,
        "city": "Argente",
        "postal_code": "44028",
        "province": "Teruel",
        "province_code": "44",
        "region": "Aragón",
        "region_code": "02",
        "latitude": 40.6884724,
        "longitude": -1.1628966,
        "altitude": 1249.7034912109,
        "zonecode": "E1"
    },
    {
        "id": 210,
        "city": "Bordón",
        "postal_code": "44044",
        "province": "Teruel",
        "province_code": "44",
        "region": "Aragón",
        "region_code": "02",
        "latitude": 40.6862519,
        "longitude": -0.3219053,
        "altitude": 833.61047363281,
        "zonecode": "D2"
    },
    {
        "id": 211,
        "city": "Estercuel",
        "postal_code": "44100",
        "province": "Teruel",
        "province_code": "44",
        "region": "Aragón",
        "region_code": "02",
        "latitude": 40.8546366,
        "longitude": -0.6334462,
        "altitude": 839.25830078125,
        "zonecode": "D2"
    },
    {
        "id": 212,
        "city": "Nogueras",
        "postal_code": "44164",
        "province": "Teruel",
        "province_code": "44",
        "region": "Aragón",
        "region_code": "02",
        "latitude": 41.1401885,
        "longitude": -1.0729818,
        "altitude": 903.00567626953,
        "zonecode": "D2"
    },
    {
        "id": 213,
        "city": "Orihuela del Tremedal",
        "postal_code": "44174",
        "province": "Teruel",
        "province_code": "44",
        "region": "Aragón",
        "region_code": "02",
        "latitude": 40.5505495,
        "longitude": -1.6505672,
        "altitude": 1451.3985595703,
        "zonecode": "E1"
    },
    {
        "id": 214,
        "city": "Las Parras de Castellote",
        "postal_code": "44178",
        "province": "Teruel",
        "province_code": "44",
        "region": "Aragón",
        "region_code": "02",
        "latitude": 40.775769,
        "longitude": -0.2449903,
        "altitude": 696.96612548828,
        "zonecode": "D2"
    },
    {
        "id": 215,
        "city": "El Pobo",
        "postal_code": "44185",
        "province": "Teruel",
        "province_code": "44",
        "region": "Aragón",
        "region_code": "02",
        "latitude": 40.5076116,
        "longitude": -0.8609602,
        "altitude": 1395.8463134766,
        "zonecode": "E1"
    },
    {
        "id": 216,
        "city": "Ródenas",
        "postal_code": "44197",
        "province": "Teruel",
        "province_code": "44",
        "region": "Aragón",
        "region_code": "02",
        "latitude": 40.640642,
        "longitude": -1.5154161,
        "altitude": 1369.7015380859,
        "zonecode": "E1"
    },
    {
        "id": 217,
        "city": "Utrillas",
        "postal_code": "44238",
        "province": "Teruel",
        "province_code": "44",
        "region": "Aragón",
        "region_code": "02",
        "latitude": 40.8127974,
        "longitude": -0.8472614,
        "altitude": 951.08117675781,
        "zonecode": "D2"
    },
    {
        "id": 218,
        "city": "Villarroya de los Pinares",
        "postal_code": "44262",
        "province": "Teruel",
        "province_code": "44",
        "region": "Aragón",
        "region_code": "02",
        "latitude": 40.5292275,
        "longitude": -0.6684106,
        "altitude": 1325.0244140625,
        "zonecode": "E1"
    },
    {
        "id": 219,
        "city": "Cabezamesada",
        "postal_code": "45027",
        "province": "Toledo",
        "province_code": "45",
        "region": "Castilla-La Mancha",
        "region_code": "08",
        "latitude": 39.8153147,
        "longitude": -3.1014614,
        "altitude": 735.37426757812,
        "zonecode": "D3"
    },
    {
        "id": 220,
        "city": "La Iglesuela del Tiétar",
        "postal_code": "45079",
        "province": "Toledo",
        "province_code": "45",
        "region": "Castilla-La Mancha",
        "region_code": "08",
        "latitude": 40.233339,
        "longitude": -4.7497457,
        "altitude": 510.17837524414,
        "zonecode": "D3"
    },
    {
        "id": 221,
        "city": "Lagartera",
        "postal_code": "45082",
        "province": "Toledo",
        "province_code": "45",
        "region": "Castilla-La Mancha",
        "region_code": "08",
        "latitude": 39.907158,
        "longitude": -5.2018774,
        "altitude": 384.80023193359,
        "zonecode": "C4"
    },
    {
        "id": 222,
        "city": "Los Navalucillos",
        "postal_code": "45113",
        "province": "Toledo",
        "province_code": "45",
        "region": "Castilla-La Mancha",
        "region_code": "08",
        "latitude": 39.664984,
        "longitude": -4.6424521,
        "altitude": 745.16192626953,
        "zonecode": "D3"
    },
    {
        "id": 223,
        "city": "Numancia de la Sagra",
        "postal_code": "45119",
        "province": "Toledo",
        "province_code": "45",
        "region": "Castilla-La Mancha",
        "region_code": "08",
        "latitude": 40.0770092,
        "longitude": -3.8570215,
        "altitude": 530.95977783203,
        "zonecode": "D3"
    },
    {
        "id": 224,
        "city": "San Bartolomé de las Abiertas",
        "postal_code": "45150",
        "province": "Toledo",
        "province_code": "45",
        "region": "Castilla-La Mancha",
        "region_code": "08",
        "latitude": 39.827746,
        "longitude": -4.7186994,
        "altitude": 556.41204833984,
        "zonecode": "D3"
    },
    {
        "id": 225,
        "city": "Seseña",
        "postal_code": "45161",
        "province": "Toledo",
        "province_code": "45",
        "region": "Castilla-La Mancha",
        "region_code": "08",
        "latitude": 40.104345,
        "longitude": -3.6922767,
        "altitude": 615.57940673828,
        "zonecode": "D3"
    },
    {
        "id": 226,
        "city": "Villacañas",
        "postal_code": "45185",
        "province": "Toledo",
        "province_code": "45",
        "region": "Castilla-La Mancha",
        "region_code": "08",
        "latitude": 39.6247278,
        "longitude": -3.3373237,
        "altitude": 676.36004638672,
        "zonecode": "D3"
    },
    {
        "id": 227,
        "city": "Villarejo de Montalbán",
        "postal_code": "45194",
        "province": "Toledo",
        "province_code": "45",
        "region": "Castilla-La Mancha",
        "region_code": "08",
        "latitude": 39.7686874,
        "longitude": -4.5734047,
        "altitude": 536.80279541016,
        "zonecode": "D3"
    },
    {
        "id": 228,
        "city": "Villarrubia de Santiago",
        "postal_code": "45195",
        "province": "Toledo",
        "province_code": "45",
        "region": "Castilla-La Mancha",
        "region_code": "08",
        "latitude": 39.9850571,
        "longitude": -3.3678641,
        "altitude": 758.11804199219,
        "zonecode": "D3"
    },
    {
        "id": 229,
        "city": "Almussafes",
        "postal_code": "46035",
        "province": "València",
        "province_code": "46",
        "region": "Comunitat Valenciana",
        "region_code": "10",
        "latitude": 39.2927653,
        "longitude": -0.413208,
        "altitude": 11.07887172699,
        "zonecode": "B3"
    },
    {
        "id": 230,
        "city": "Alpuente",
        "postal_code": "46036",
        "province": "València",
        "province_code": "46",
        "region": "Comunitat Valenciana",
        "region_code": "10",
        "latitude": 39.8757866,
        "longitude": -1.0137828,
        "altitude": 956.34796142578,
        "zonecode": "E1"
    },
    {
        "id": 231,
        "city": "Benifairó de la Valldigna",
        "postal_code": "46059",
        "province": "València",
        "province_code": "46",
        "region": "Comunitat Valenciana",
        "region_code": "10",
        "latitude": 39.0547984,
        "longitude": -0.3031019,
        "altitude": 37.259246826172,
        "zonecode": "B3"
    },
    {
        "id": 232,
        "city": "Chera",
        "postal_code": "46108",
        "province": "València",
        "province_code": "46",
        "region": "Comunitat Valenciana",
        "region_code": "10",
        "latitude": 39.5928971,
        "longitude": -0.9731058,
        "altitude": 642.56817626953,
        "zonecode": "D2"
    },
    {
        "id": 233,
        "city": "Cheste",
        "postal_code": "46109",
        "province": "València",
        "province_code": "46",
        "region": "Comunitat Valenciana",
        "region_code": "10",
        "latitude": 39.4934832,
        "longitude": -0.6856076,
        "altitude": 213.75134277344,
        "zonecode": "C3"
    },
    {
        "id": 234,
        "city": "Faura",
        "postal_code": "46122",
        "province": "València",
        "province_code": "46",
        "region": "Comunitat Valenciana",
        "region_code": "10",
        "latitude": 39.7259095,
        "longitude": -0.2637108,
        "altitude": 37.483345031738,
        "zonecode": "B3"
    },
    {
        "id": 235,
        "city": "Fortaleny",
        "postal_code": "46125",
        "province": "València",
        "province_code": "46",
        "region": "Comunitat Valenciana",
        "region_code": "10",
        "latitude": 39.1831989,
        "longitude": -0.315441,
        "altitude": 7.7408375740051,
        "zonecode": "B3"
    },
    {
        "id": 236,
        "city": "la Font d'en Carròs",
        "postal_code": "46127",
        "province": "València",
        "province_code": "46",
        "region": "Comunitat Valenciana",
        "region_code": "10",
        "latitude": 38.9164419,
        "longitude": -0.1711542,
        "altitude": 64.181701660156,
        "zonecode": "C3"
    },
    {
        "id": 237,
        "city": "Montesa",
        "postal_code": "46174",
        "province": "València",
        "province_code": "46",
        "region": "Comunitat Valenciana",
        "region_code": "10",
        "latitude": 38.9338004,
        "longitude": -0.6298922,
        "altitude": 193.46157836914,
        "zonecode": "C3"
    },
    {
        "id": 238,
        "city": "Navarrés",
        "postal_code": "46179",
        "province": "València",
        "province_code": "46",
        "region": "Comunitat Valenciana",
        "region_code": "10",
        "latitude": 39.1015607,
        "longitude": -0.6950987,
        "altitude": 271.90539550781,
        "zonecode": "C3"
    },
    {
        "id": 239,
        "city": "Rafelguaraf",
        "postal_code": "46209",
        "province": "València",
        "province_code": "46",
        "region": "Comunitat Valenciana",
        "region_code": "10",
        "latitude": 39.0509815,
        "longitude": -0.4554956,
        "altitude": 42.592388153076,
        "zonecode": "B3"
    },
    {
        "id": 240,
        "city": "Sagunt",
        "postal_code": "46220",
        "province": "València",
        "province_code": "46",
        "region": "Comunitat Valenciana",
        "region_code": "10",
        "latitude": 39.6801121,
        "longitude": -0.2784001,
        "altitude": 54.744049072266,
        "zonecode": "C3"
    },
    {
        "id": 241,
        "city": "Segart",
        "postal_code": "46224",
        "province": "València",
        "province_code": "46",
        "region": "Comunitat Valenciana",
        "region_code": "10",
        "latitude": 39.6837893,
        "longitude": -0.3733642,
        "altitude": 273.57424926758,
        "zonecode": "C3"
    },
    {
        "id": 242,
        "city": "Sueca",
        "postal_code": "46235",
        "province": "València",
        "province_code": "46",
        "region": "Comunitat Valenciana",
        "region_code": "10",
        "latitude": 39.2033565,
        "longitude": -0.3113278,
        "altitude": 7.9564714431763,
        "zonecode": "B3"
    },
    {
        "id": 243,
        "city": "Castromembibre",
        "postal_code": "47042",
        "province": "Valladolid",
        "province_code": "47",
        "region": "Castilla y León",
        "region_code": "07",
        "latitude": 41.6727012,
        "longitude": -5.3043695,
        "altitude": 786.85601806641,
        "zonecode": "C4"
    },
    {
        "id": 244,
        "city": "Fuente-Olmedo",
        "postal_code": "47068",
        "province": "Valladolid",
        "province_code": "47",
        "region": "Castilla y León",
        "region_code": "07",
        "latitude": 41.244062,
        "longitude": -4.6472951,
        "altitude": 793.02520751953,
        "zonecode": "C4"
    },
    {
        "id": 245,
        "city": "San Miguel del Arroyo",
        "postal_code": "47145",
        "province": "Valladolid",
        "province_code": "47",
        "region": "Castilla y León",
        "region_code": "07",
        "latitude": 41.4437651,
        "longitude": -4.4606661,
        "altitude": 817.40612792969,
        "zonecode": "D3"
    },
    {
        "id": 246,
        "city": "San Miguel del Pino",
        "postal_code": "47146",
        "province": "Valladolid",
        "province_code": "47",
        "region": "Castilla y León",
        "region_code": "07",
        "latitude": 41.5093733,
        "longitude": -4.910755,
        "altitude": 676.29388427734,
        "zonecode": "C4"
    },
    {
        "id": 247,
        "city": "Torre de Esgueva",
        "postal_code": "47169",
        "province": "Valladolid",
        "province_code": "47",
        "region": "Castilla y León",
        "region_code": "07",
        "latitude": 41.7680156,
        "longitude": -4.1993838,
        "altitude": 809.33020019531,
        "zonecode": "D3"
    },
    {
        "id": 248,
        "city": "Valverde de Campos",
        "postal_code": "47185",
        "province": "Valladolid",
        "province_code": "47",
        "region": "Castilla y León",
        "region_code": "07",
        "latitude": 41.8348702,
        "longitude": -5.0371025,
        "altitude": 770.48040771484,
        "zonecode": "C4"
    },
    {
        "id": 249,
        "city": "Velliza",
        "postal_code": "47191",
        "province": "Valladolid",
        "province_code": "47",
        "region": "Castilla y León",
        "region_code": "07",
        "latitude": 41.5794897,
        "longitude": -4.9464542,
        "altitude": 775.82214355469,
        "zonecode": "C4"
    },
    {
        "id": 250,
        "city": "Villanueva de San Mancio",
        "postal_code": "47222",
        "province": "Valladolid",
        "province_code": "47",
        "region": "Castilla y León",
        "region_code": "07",
        "latitude": 41.9288716,
        "longitude": -5.0110952,
        "altitude": 744.82238769531,
        "zonecode": "C4"
    },
    {
        "id": 251,
        "city": "Ortuella",
        "postal_code": "48083",
        "province": "Bizkaia",
        "province_code": "48",
        "region": "País Vasco",
        "region_code": "16",
        "latitude": 43.3093399,
        "longitude": -3.0538639,
        "altitude": 62.076709747314,
        "zonecode": "C1"
    },
    {
        "id": 252,
        "city": "Zaldibar",
        "postal_code": "48095",
        "province": "Bizkaia",
        "province_code": "48",
        "region": "País Vasco",
        "region_code": "16",
        "latitude": 43.1718509,
        "longitude": -2.5482725,
        "altitude": 212.68955993652,
        "zonecode": "C1"
    },
    {
        "id": 253,
        "city": "Zalla",
        "postal_code": "48096",
        "province": "Bizkaia",
        "province_code": "48",
        "region": "País Vasco",
        "region_code": "16",
        "latitude": 43.2129797,
        "longitude": -3.1340551,
        "altitude": 93.751953125,
        "zonecode": "C1"
    },
    {
        "id": 254,
        "city": "Nabarniz",
        "postal_code": "48909",
        "province": "Bizkaia",
        "province_code": "48",
        "region": "País Vasco",
        "region_code": "16",
        "latitude": 43.3213208,
        "longitude": -2.5844348,
        "altitude": 365.96795654297,
        "zonecode": "D1"
    },
    {
        "id": 255,
        "city": "Cañizo",
        "postal_code": "49035",
        "province": "Zamora",
        "province_code": "49",
        "region": "Castilla y León",
        "region_code": "07",
        "latitude": 41.7695218,
        "longitude": -5.5026902,
        "altitude": 678.27514648438,
        "zonecode": "C4"
    },
    {
        "id": 256,
        "city": "Fresno de Sayago",
        "postal_code": "49077",
        "province": "Zamora",
        "province_code": "49",
        "region": "Castilla y León",
        "region_code": "07",
        "latitude": 41.3185493,
        "longitude": -5.9707007,
        "altitude": 803.27954101562,
        "zonecode": "D3"
    },
    {
        "id": 257,
        "city": "Galende",
        "postal_code": "49085",
        "province": "Zamora",
        "province_code": "49",
        "region": "Castilla y León",
        "region_code": "07",
        "latitude": 42.1053201,
        "longitude": -6.6618074,
        "altitude": 948.73260498047,
        "zonecode": "D3"
    },
    {
        "id": 258,
        "city": "Melgar de Tera",
        "postal_code": "49116",
        "province": "Zamora",
        "province_code": "49",
        "region": "Castilla y León",
        "region_code": "07",
        "latitude": 41.9660196,
        "longitude": -6.0143307,
        "altitude": 747.55419921875,
        "zonecode": "C4"
    },
    {
        "id": 259,
        "city": "Puebla de Sanabria",
        "postal_code": "49166",
        "province": "Zamora",
        "province_code": "49",
        "region": "Castilla y León",
        "region_code": "07",
        "latitude": 42.0543768,
        "longitude": -6.6349267,
        "altitude": 929.96228027344,
        "zonecode": "D3"
    },
    {
        "id": 260,
        "city": "Quintanilla de Urz",
        "postal_code": "49170",
        "province": "Zamora",
        "province_code": "49",
        "region": "Castilla y León",
        "region_code": "07",
        "latitude": 42.0326295,
        "longitude": -5.8479125,
        "altitude": 716.84747314453,
        "zonecode": "C4"
    },
    {
        "id": 261,
        "city": "San Pedro de la Nave-Almendra",
        "postal_code": "49194",
        "province": "Zamora",
        "province_code": "49",
        "region": "Castilla y León",
        "region_code": "07",
        "latitude": 41.5828014,
        "longitude": -5.9356872,
        "altitude": 740.95330810547,
        "zonecode": "C4"
    },
    {
        "id": 262,
        "city": "Vega de Tera",
        "postal_code": "49231",
        "province": "Zamora",
        "province_code": "49",
        "region": "Castilla y León",
        "region_code": "07",
        "latitude": 41.9971757,
        "longitude": -6.12553,
        "altitude": 755.33093261719,
        "zonecode": "C4"
    },
    {
        "id": 263,
        "city": "Vezdemarbán",
        "postal_code": "49235",
        "province": "Zamora",
        "province_code": "49",
        "region": "Castilla y León",
        "region_code": "07",
        "latitude": 41.6542859,
        "longitude": -5.3664761,
        "altitude": 770.23498535156,
        "zonecode": "C4"
    },
    {
        "id": 264,
        "city": "Viñas",
        "postal_code": "49273",
        "province": "Zamora",
        "province_code": "49",
        "region": "Castilla y León",
        "region_code": "07",
        "latitude": 41.7877894,
        "longitude": -6.4609998,
        "altitude": 759.09027099609,
        "zonecode": "C4"
    },
    {
        "id": 265,
        "city": "Alhama de Aragón",
        "postal_code": "50020",
        "province": "Zaragoza",
        "province_code": "50",
        "region": "Aragón",
        "region_code": "02",
        "latitude": 41.2974165,
        "longitude": -1.8936504,
        "altitude": 659.68725585938,
        "zonecode": "E1"
    },
    {
        "id": 266,
        "city": "Belchite",
        "postal_code": "50045",
        "province": "Zaragoza",
        "province_code": "50",
        "region": "Aragón",
        "region_code": "02",
        "latitude": 41.3047407,
        "longitude": -0.7544692,
        "altitude": 447.83422851562,
        "zonecode": "D3"
    },
    {
        "id": 267,
        "city": "Cabolafuente",
        "postal_code": "50065",
        "province": "Zaragoza",
        "province_code": "50",
        "region": "Aragón",
        "region_code": "02",
        "latitude": 41.2113657,
        "longitude": -2.0407904,
        "altitude": 960.96435546875,
        "zonecode": "E1"
    },
    {
        "id": 268,
        "city": "Los Fayos",
        "postal_code": "50106",
        "province": "Zaragoza",
        "province_code": "50",
        "region": "Aragón",
        "region_code": "02",
        "latitude": 41.6474339,
        "longitude": -0.8861451,
        "altitude": 210.34266662598,
        "zonecode": "D3"
    },
    {
        "id": 269,
        "city": "Lobera de Onsella",
        "postal_code": "50142",
        "province": "Zaragoza",
        "province_code": "50",
        "region": "Aragón",
        "region_code": "02",
        "latitude": 42.4783497,
        "longitude": -1.0221165,
        "altitude": 662.78973388672,
        "zonecode": "E1"
    },
    {
        "id": 270,
        "city": "Longares",
        "postal_code": "50143",
        "province": "Zaragoza",
        "province_code": "50",
        "region": "Aragón",
        "region_code": "02",
        "latitude": 41.4021734,
        "longitude": -1.1682977,
        "altitude": 536.38824462891,
        "zonecode": "D3"
    },
    {
        "id": 271,
        "city": "Luesia",
        "postal_code": "50148",
        "province": "Zaragoza",
        "province_code": "50",
        "region": "Aragón",
        "region_code": "02",
        "latitude": 41.6625974,
        "longitude": -0.8685239,
        "altitude": 199.6558380127,
        "zonecode": "C3"
    },
    {
        "id": 272,
        "city": "Moneva",
        "postal_code": "50171",
        "province": "Zaragoza",
        "province_code": "50",
        "region": "Aragón",
        "region_code": "02",
        "latitude": 41.6449333,
        "longitude": -0.8963507,
        "altitude": 219.2869720459,
        "zonecode": "D3"
    },
    {
        "id": 273,
        "city": "Orcajo",
        "postal_code": "50195",
        "province": "Zaragoza",
        "province_code": "50",
        "region": "Aragón",
        "region_code": "02",
        "latitude": 41.1097899,
        "longitude": -1.4887997,
        "altitude": 923.73718261719,
        "zonecode": "E1"
    },
    {
        "id": 274,
        "city": "Plenas",
        "postal_code": "50213",
        "province": "Zaragoza",
        "province_code": "50",
        "region": "Aragón",
        "region_code": "02",
        "latitude": 41.1128326,
        "longitude": -0.9647439,
        "altitude": 827.84484863281,
        "zonecode": "E1"
    },
    {
        "id": 275,
        "city": "Sediles",
        "postal_code": "50242",
        "province": "Zaragoza",
        "province_code": "50",
        "region": "Aragón",
        "region_code": "02",
        "latitude": 41.3462691,
        "longitude": -1.5308491,
        "altitude": 738.16967773438,
        "zonecode": "E1"
    },
    {
        "id": 276,
        "city": "Tarazona",
        "postal_code": "50251",
        "province": "Zaragoza",
        "province_code": "50",
        "region": "Aragón",
        "region_code": "02",
        "latitude": 41.8992909,
        "longitude": -1.723184,
        "altitude": 502.33773803711,
        "zonecode": "D3"
    },
    {
        "id": 277,
        "city": "Torrellas",
        "postal_code": "50261",
        "province": "Zaragoza",
        "province_code": "50",
        "region": "Aragón",
        "region_code": "02",
        "latitude": 41.8955059,
        "longitude": -1.7703131,
        "altitude": 575.61627197266,
        "zonecode": "D3"
    },
    {
        "id": 278,
        "city": "Villar de los Navarros",
        "postal_code": "50291",
        "province": "Zaragoza",
        "province_code": "50",
        "region": "Aragón",
        "region_code": "02",
        "latitude": 41.1587041,
        "longitude": -1.0424551,
        "altitude": 800.22485351562,
        "zonecode": "E1"
    },
    {
        "id": 279,
        "city": "Villarroya del Campo",
        "postal_code": "50294",
        "province": "Zaragoza",
        "province_code": "50",
        "region": "Aragón",
        "region_code": "02",
        "latitude": 41.1435435,
        "longitude": -1.3255337,
        "altitude": 917.29534912109,
        "zonecode": "E1"
    },
    {
        "id": 280,
        "city": "Comunidad de Canicosa de la Sierra y Casarejos",
        "postal_code": "53018",
        "province": "Burgos",
        "province_code": "09",
        "region": "Castilla y León",
        "region_code": "07",
        "latitude": 41.8875816,
        "longitude": -3.0407203,
        "altitude": 1279.1796875,
        "zonecode": "E1"
    },
    {
        "id": 281,
        "city": "Comunidad de Cubillo del Campo y Hontoria de la Cantera",
        "postal_code": "53025",
        "province": "Burgos",
        "province_code": "09",
        "region": "Castilla y León",
        "region_code": "07",
        "latitude": 42.1843326,
        "longitude": -3.6167146,
        "altitude": 965.58947753906,
        "zonecode": "E1"
    },
    {
        "id": 282,
        "city": "Coto Mancomunado",
        "postal_code": "53071",
        "province": "Salamanca",
        "province_code": "37",
        "region": "Castilla y León",
        "region_code": "07",
        "latitude": 41.0570506,
        "longitude": -5.5320543,
        "altitude": 823.11383056641,
        "zonecode": "D2"
    },
    {
        "id": 283,
        "city": "Mediona",
        "postal_code": "08122",
        "province": "Barcelona",
        "province_code": "08",
        "region": "Cataluña",
        "region_code": "09",
        "latitude": 41.4798069,
        "longitude": 1.627507,
        "altitude": 468,
        "zonecode": "D1"
    },
    {
        "id": 284,
        "city": "Muñotello",
        "postal_code": "05143",
        "province": "Ávila",
        "province_code": "05",
        "region": "Castilla y León",
        "region_code": "07",
        "latitude": 40.542046,
        "longitude": -5.0423054,
        "altitude": 1159.2869873047,
        "zonecode": "E1"
    },
    {
        "id": 285,
        "city": "Padiernos",
        "postal_code": "05176",
        "province": "Ávila",
        "province_code": "05",
        "region": "Castilla y León",
        "region_code": "07",
        "latitude": 40.6224505,
        "longitude": -4.8462294,
        "altitude": 1108.3541259766,
        "zonecode": "E1"
    },
    {
        "id": 286,
        "city": "San Juan del Olmo",
        "postal_code": "05213",
        "province": "Ávila",
        "province_code": "05",
        "region": "Castilla y León",
        "region_code": "07",
        "latitude": 40.653132,
        "longitude": -5.0514117,
        "altitude": 1283.7508544922,
        "zonecode": "E1"
    },